%time,field.header.seq,field.header.stamp,field.header.frame_id,field.pose.pose.position.x,field.pose.pose.position.y,field.pose.pose.position.z,field.pose.pose.orientation.x,field.pose.pose.orientation.y,field.pose.pose.orientation.z,field.pose.pose.orientation.w,field.pose.covariance0,field.pose.covariance1,field.pose.covariance2,field.pose.covariance3,field.pose.covariance4,field.pose.covariance5,field.pose.covariance6,field.pose.covariance7,field.pose.covariance8,field.pose.covariance9,field.pose.covariance10,field.pose.covariance11,field.pose.covariance12,field.pose.covariance13,field.pose.covariance14,field.pose.covariance15,field.pose.covariance16,field.pose.covariance17,field.pose.covariance18,field.pose.covariance19,field.pose.covariance20,field.pose.covariance21,field.pose.covariance22,field.pose.covariance23,field.pose.covariance24,field.pose.covariance25,field.pose.covariance26,field.pose.covariance27,field.pose.covariance28,field.pose.covariance29,field.pose.covariance30,field.pose.covariance31,field.pose.covariance32,field.pose.covariance33,field.pose.covariance34,field.pose.covariance35
1616790898126369607,225,1616790898067856789,map,-2.75719687795,-0.097601933199,0.0,0.0,0.0,0.998372875965,0.0570228071759,0.0712466169579,-0.00327444398329,0.0,0.0,0.0,0.0,-0.00327444398329,0.00904397566664,0.0,0.0,0.0,0.0,0.0,0.0,0.0,0.0,0.0,0.0,0.0,0.0,0.0,0.0,0.0,0.0,0.0,0.0,0.0,0.0,0.0,0.0,0.0,0.0,0.0,0.0,0.0,0.0348277739631
1616790898590328526,226,1616790898534450531,map,-3.00238074527,-0.0925700086815,0.0,0.0,0.0,-0.999711987922,0.0239987750904,0.0705014681833,-0.00353513676387,0.0,0.0,0.0,0.0,-0.00353513676387,0.00720550421141,0.0,0.0,0.0,0.0,0.0,0.0,0.0,0.0,0.0,0.0,0.0,0.0,0.0,0.0,0.0,0.0,0.0,0.0,0.0,0.0,0.0,0.0,0.0,0.0,0.0,0.0,0.0,0.0329740428949
1616790899391376020,227,1616790899335298777,map,-3.34140129295,-0.158309785222,0.0,0.0,0.0,-0.999605292907,0.0280937429314,0.0859583736676,0.000674360124445,0.0,0.0,0.0,0.0,0.000674360124445,0.00863149517578,0.0,0.0,0.0,0.0,0.0,0.0,0.0,0.0,0.0,0.0,0.0,0.0,0.0,0.0,0.0,0.0,0.0,0.0,0.0,0.0,0.0,0.0,0.0,0.0,0.0,0.0,0.0,0.0474569328676
1616790899993753937,228,1616790899937282085,map,-3.66906388571,-0.127072267316,0.0,0.0,0.0,0.984770244046,0.173860767404,0.0928999510965,-0.00169677553044,0.0,0.0,0.0,0.0,-0.00169677553044,0.0102901750989,0.0,0.0,0.0,0.0,0.0,0.0,0.0,0.0,0.0,0.0,0.0,0.0,0.0,0.0,0.0,0.0,0.0,0.0,0.0,0.0,0.0,0.0,0.0,0.0,0.0,0.0,0.0,0.037475020933
1616790900930546872,229,1616790900868434668,map,-3.70246770808,-0.0408042663116,0.0,0.0,0.0,0.905803134615,0.423698809677,0.0921642862159,-0.0059212131837,0.0,0.0,0.0,0.0,-0.0059212131837,0.0114686233837,0.0,0.0,0.0,0.0,0.0,0.0,0.0,0.0,0.0,0.0,0.0,0.0,0.0,0.0,0.0,0.0,0.0,0.0,0.0,0.0,0.0,0.0,0.0,0.0,0.0,0.0,0.0,0.0319435123911
1616790903726205315,230,1616790903667733192,map,-3.70330993427,-0.0466083487185,0.0,0.0,0.0,0.98448454837,0.175471291158,0.0904714647212,-0.0114558477907,0.0,0.0,0.0,0.0,-0.0114558477907,0.0136325354194,0.0,0.0,0.0,0.0,0.0,0.0,0.0,0.0,0.0,0.0,0.0,0.0,0.0,0.0,0.0,0.0,0.0,0.0,0.0,0.0,0.0,0.0,0.0,0.0,0.0,0.0,0.0,0.0272796476346
1616790904327135070,231,1616790904267751455,map,-3.67763236726,-0.0555607127009,0.0,0.0,0.0,-0.994607066299,0.103714915361,0.0915196591509,-0.0113091784801,0.0,0.0,0.0,0.0,-0.0113091784801,0.0115924179321,0.0,0.0,0.0,0.0,0.0,0.0,0.0,0.0,0.0,0.0,0.0,0.0,0.0,0.0,0.0,0.0,0.0,0.0,0.0,0.0,0.0,0.0,0.0,0.0,0.0,0.0,0.0,0.0249702480208
1616790904855999526,232,1616790904800677776,map,-3.66031544465,-0.0663988192033,0.0,0.0,0.0,-0.934058906211,0.357118971391,0.0781526687723,-0.00456699304495,0.0,0.0,0.0,0.0,-0.00456699304495,0.0127618945441,0.0,0.0,0.0,0.0,0.0,0.0,0.0,0.0,0.0,0.0,0.0,0.0,0.0,0.0,0.0,0.0,0.0,0.0,0.0,0.0,0.0,0.0,0.0,0.0,0.0,0.0,0.0,0.0218636273595
1616790905597624532,233,1616790905534788847,map,-3.69758498324,-0.075008817928,0.0,0.0,0.0,-0.800653408218,0.599127799312,0.0561668711214,0.00416025107351,0.0,0.0,0.0,0.0,0.00416025107351,0.020055641258,0.0,0.0,0.0,0.0,0.0,0.0,0.0,0.0,0.0,0.0,0.0,0.0,0.0,0.0,0.0,0.0,0.0,0.0,0.0,0.0,0.0,0.0,0.0,0.0,0.0,0.0,0.0,0.02285389394
1616790908790399583,234,1616790908734154224,map,-3.76031210835,-0.361782848644,0.0,0.0,0.0,-0.744124074708,0.668041436919,0.0322626840672,0.0042339481984,0.0,0.0,0.0,0.0,0.0042339481984,0.0359486111273,0.0,0.0,0.0,0.0,0.0,0.0,0.0,0.0,0.0,0.0,0.0,0.0,0.0,0.0,0.0,0.0,0.0,0.0,0.0,0.0,0.0,0.0,0.0,0.0,0.0,0.0,0.0,0.0319790375954
1616790909055241069,235,1616790909000122070,map,-3.81029713502,-0.611052579292,0.0,0.0,0.0,-0.762530307975,0.646952493943,0.0221248456546,0.0032385211002,0.0,0.0,0.0,0.0,0.0032385211002,0.0405608513271,0.0,0.0,0.0,0.0,0.0,0.0,0.0,0.0,0.0,0.0,0.0,0.0,0.0,0.0,0.0,0.0,0.0,0.0,0.0,0.0,0.0,0.0,0.0,0.0,0.0,0.0,0.0,0.0368279160944
1616790909328898668,236,1616790909267075539,map,-3.8377732281,-0.862529725341,0.0,0.0,0.0,-0.746760301382,0.665093265851,0.019355123103,0.00270655522476,0.0,0.0,0.0,0.0,0.00270655522476,0.0443427066089,0.0,0.0,0.0,0.0,0.0,0.0,0.0,0.0,0.0,0.0,0.0,0.0,0.0,0.0,0.0,0.0,0.0,0.0,0.0,0.0,0.0,0.0,0.0,0.0,0.0,0.0,0.0,0.0421557916438
1616790909591154538,237,1616790909534860849,map,-3.8567276476,-1.11018714128,0.0,0.0,0.0,-0.741246937952,0.67123243141,0.0194344196701,0.00216482932373,0.0,0.0,0.0,0.0,0.00216482932373,0.0484990029721,0.0,0.0,0.0,0.0,0.0,0.0,0.0,0.0,0.0,0.0,0.0,0.0,0.0,0.0,0.0,0.0,0.0,0.0,0.0,0.0,0.0,0.0,0.0,0.0,0.0,0.0,0.0,0.0493948542255
1616790909858036859,238,1616790909800636530,map,-3.8549931045,-1.38694703099,0.0,0.0,0.0,-0.740964853962,0.671543807352,0.0219529661217,0.00176258072703,0.0,0.0,0.0,0.0,0.00176258072703,0.0517939992835,0.0,0.0,0.0,0.0,0.0,0.0,0.0,0.0,0.0,0.0,0.0,0.0,0.0,0.0,0.0,0.0,0.0,0.0,0.0,0.0,0.0,0.0,0.0,0.0,0.0,0.0,0.0,0.049086192438
1616790910123641321,239,1616790910067638159,map,-3.84762280641,-1.63993889317,0.0,0.0,0.0,-0.740928895323,0.671583481092,0.0193113481715,0.000868382668474,0.0,0.0,0.0,0.0,0.000868382668474,0.0506328987407,0.0,0.0,0.0,0.0,0.0,0.0,0.0,0.0,0.0,0.0,0.0,0.0,0.0,0.0,0.0,0.0,0.0,0.0,0.0,0.0,0.0,0.0,0.0,0.0,0.0,0.0,0.0,0.0460511755117
1616790910391326633,240,1616790910334798336,map,-3.86525017295,-1.91635107805,0.0,0.0,0.0,-0.753076736956,0.657932692801,0.0163263797603,0.00175867516768,0.0,0.0,0.0,0.0,0.00175867516768,0.0506000683579,0.0,0.0,0.0,0.0,0.0,0.0,0.0,0.0,0.0,0.0,0.0,0.0,0.0,0.0,0.0,0.0,0.0,0.0,0.0,0.0,0.0,0.0,0.0,0.0,0.0,0.0,0.0,0.0446913175362
1616790910656585432,241,1616790910600794315,map,-3.90490947899,-2.19587343754,0.0,0.0,0.0,-0.770279834332,0.637706026961,0.0173791925246,0.002989032279,0.0,0.0,0.0,0.0,0.002989032279,0.0484015696028,0.0,0.0,0.0,0.0,0.0,0.0,0.0,0.0,0.0,0.0,0.0,0.0,0.0,0.0,0.0,0.0,0.0,0.0,0.0,0.0,0.0,0.0,0.0,0.0,0.0,0.0,0.0,0.0421282165014
1616790910933641431,242,1616790910868206024,map,-3.95202308437,-2.43975550139,0.0,0.0,0.0,-0.783231402846,0.621730302941,0.0161814836666,0.00185206472705,0.0,0.0,0.0,0.0,0.00185206472705,0.04698238888,0.0,0.0,0.0,0.0,0.0,0.0,0.0,0.0,0.0,0.0,0.0,0.0,0.0,0.0,0.0,0.0,0.0,0.0,0.0,0.0,0.0,0.0,0.0,0.0,0.0,0.0,0.0,0.0408755964843
1616790911196473505,243,1616790911134732246,map,-4.01391463372,-2.69926849082,0.0,0.0,0.0,-0.80147570583,0.598027334629,0.0215778627236,0.00143814790898,0.0,0.0,0.0,0.0,0.00143814790898,0.0465844589533,0.0,0.0,0.0,0.0,0.0,0.0,0.0,0.0,0.0,0.0,0.0,0.0,0.0,0.0,0.0,0.0,0.0,0.0,0.0,0.0,0.0,0.0,0.0,0.0,0.0,0.0,0.0,0.044503259326
1616790911456877382,244,1616790911401282787,map,-4.10019489687,-2.93936774639,0.0,0.0,0.0,-0.819794317072,0.572658080967,0.0241894302224,-0.00189447525971,0.0,0.0,0.0,0.0,-0.00189447525971,0.0477528289913,0.0,0.0,0.0,0.0,0.0,0.0,0.0,0.0,0.0,0.0,0.0,0.0,0.0,0.0,0.0,0.0,0.0,0.0,0.0,0.0,0.0,0.0,0.0,0.0,0.0,0.0,0.0,0.0514771489366
1616790911724641777,245,1616790911667566538,map,-4.19861084055,-3.18353197632,0.0,0.0,0.0,-0.823305936423,0.567597863853,0.0232589685825,-0.00107852658612,0.0,0.0,0.0,0.0,-0.00107852658612,0.0477194386649,0.0,0.0,0.0,0.0,0.0,0.0,0.0,0.0,0.0,0.0,0.0,0.0,0.0,0.0,0.0,0.0,0.0,0.0,0.0,0.0,0.0,0.0,0.0,0.0,0.0,0.0,0.0,0.0470356769485
1616790911997065459,246,1616790911937181473,map,-4.27808918848,-3.42304204507,0.0,0.0,0.0,-0.782316065354,0.622881669251,0.0226891194964,-0.000845080977486,0.0,0.0,0.0,0.0,-0.000845080977486,0.0444218558633,0.0,0.0,0.0,0.0,0.0,0.0,0.0,0.0,0.0,0.0,0.0,0.0,0.0,0.0,0.0,0.0,0.0,0.0,0.0,0.0,0.0,0.0,0.0,0.0,0.0,0.0,0.0,0.0423624263502
1616790912258248348,247,1616790912201443672,map,-4.34417131819,-3.68578286145,0.0,0.0,0.0,-0.769509283191,0.638635626224,0.0199307089315,-0.000355239039973,0.0,0.0,0.0,0.0,-0.000355239039973,0.0392124850507,0.0,0.0,0.0,0.0,0.0,0.0,0.0,0.0,0.0,0.0,0.0,0.0,0.0,0.0,0.0,0.0,0.0,0.0,0.0,0.0,0.0,0.0,0.0,0.0,0.0,0.0,0.0,0.0413668101493
1616790912536129069,248,1616790912468629599,map,-4.36655814713,-3.94690376521,0.0,0.0,0.0,-0.717303600598,0.696760751312,0.0175014033112,-0.00146529593123,0.0,0.0,0.0,0.0,-0.00146529593123,0.0368605841287,0.0,0.0,0.0,0.0,0.0,0.0,0.0,0.0,0.0,0.0,0.0,0.0,0.0,0.0,0.0,0.0,0.0,0.0,0.0,0.0,0.0,0.0,0.0,0.0,0.0,0.0,0.0,0.040969254751
1616790912790878559,249,1616790912734947205,map,-4.35722805539,-4.20650080877,0.0,0.0,0.0,-0.667496202851,0.744613201052,0.0173539808,-0.00324635257257,0.0,0.0,0.0,0.0,-0.00324635257257,0.0359415314219,0.0,0.0,0.0,0.0,0.0,0.0,0.0,0.0,0.0,0.0,0.0,0.0,0.0,0.0,0.0,0.0,0.0,0.0,0.0,0.0,0.0,0.0,0.0,0.0,0.0,0.0,0.0,0.0421339823654
1616790913059073093,250,1616790913001968622,map,-4.31588543256,-4.45494495982,0.0,0.0,0.0,-0.645197747919,0.764015619003,0.0176790288884,-0.00522238332271,0.0,0.0,0.0,0.0,-0.00522238332272,0.0380357965508,0.0,0.0,0.0,0.0,0.0,0.0,0.0,0.0,0.0,0.0,0.0,0.0,0.0,0.0,0.0,0.0,0.0,0.0,0.0,0.0,0.0,0.0,0.0,0.0,0.0,0.0,0.0,0.0442562940969
1616790913331085735,251,1616790913268393517,map,-4.26976299862,-4.70302497409,0.0,0.0,0.0,-0.633706809861,0.773573318526,0.0171222630132,-0.00635014476121,0.0,0.0,0.0,0.0,-0.00635014476121,0.0349020096455,0.0,0.0,0.0,0.0,0.0,0.0,0.0,0.0,0.0,0.0,0.0,0.0,0.0,0.0,0.0,0.0,0.0,0.0,0.0,0.0,0.0,0.0,0.0,0.0,0.0,0.0,0.0,0.0425829295627
1616790913664359064,252,1616790913601449013,map,-4.19963492878,-5.00024909098,0.0,0.0,0.0,-0.625969726731,0.779847357639,0.0200021088026,-0.00944885277015,0.0,0.0,0.0,0.0,-0.00944885277015,0.0382661086286,0.0,0.0,0.0,0.0,0.0,0.0,0.0,0.0,0.0,0.0,0.0,0.0,0.0,0.0,0.0,0.0,0.0,0.0,0.0,0.0,0.0,0.0,0.0,0.0,0.0,0.0,0.0,0.0560763977168
1616790914127975836,253,1616790914068520784,map,-4.13002090016,-5.27039370283,0.0,0.0,0.0,-0.614171390384,0.789172670101,0.0224327511318,-0.00903203023603,0.0,0.0,0.0,0.0,-0.00903203023603,0.0347654721204,0.0,0.0,0.0,0.0,0.0,0.0,0.0,0.0,0.0,0.0,0.0,0.0,0.0,0.0,0.0,0.0,0.0,0.0,0.0,0.0,0.0,0.0,0.0,0.0,0.0,0.0,0.0,0.055722083498
1616790915129180615,254,1616790915069009781,map,-4.0498808871,-5.56453943215,0.0,0.0,0.0,-0.609063680878,0.793121322772,0.0301822700706,-0.00846808243272,0.0,0.0,0.0,0.0,-0.00846808243272,0.0318716738312,0.0,0.0,0.0,0.0,0.0,0.0,0.0,0.0,0.0,0.0,0.0,0.0,0.0,0.0,0.0,0.0,0.0,0.0,0.0,0.0,0.0,0.0,0.0,0.0,0.0,0.0,0.0,0.0592145357313
1616790917790603730,255,1616790917734456539,map,-3.98931295386,-5.69664481759,0.0,0.0,0.0,-0.369198856078,0.929350420816,0.0271647235967,-0.0124525861706,0.0,0.0,0.0,0.0,-0.0124525861706,0.0320187617932,0.0,0.0,0.0,0.0,0.0,0.0,0.0,0.0,0.0,0.0,0.0,0.0,0.0,0.0,0.0,0.0,0.0,0.0,0.0,0.0,0.0,0.0,0.0,0.0,0.0,0.0,0.0,0.0463182644714
1616790918591518969,256,1616790918534173489,map,-3.99242649367,-5.70132378974,0.0,0.0,0.0,-0.101263591582,0.994859630812,0.0320179434202,-0.0124591100859,0.0,0.0,0.0,0.0,-0.0124591100859,0.01819057733,0.0,0.0,0.0,0.0,0.0,0.0,0.0,0.0,0.0,0.0,0.0,0.0,0.0,0.0,0.0,0.0,0.0,0.0,0.0,0.0,0.0,0.0,0.0,0.0,0.0,0.0,0.0,0.0324023037381
1616790921656617210,257,1616790921601382732,map,-3.7195471942,-5.71767719222,0.0,0.0,0.0,-0.0241861355623,0.999707472637,0.0432173470442,-0.00767649328936,0.0,0.0,0.0,0.0,-0.00767649328936,0.0104423420266,0.0,0.0,0.0,0.0,0.0,0.0,0.0,0.0,0.0,0.0,0.0,0.0,0.0,0.0,0.0,0.0,0.0,0.0,0.0,0.0,0.0,0.0,0.0,0.0,0.0,0.0,0.0,0.031325373811
1616790921923174090,258,1616790921867082596,map,-3.44793690575,-5.74344848578,0.0,0.0,0.0,-0.0777716331884,0.99697119972,0.0489477145979,-0.00517931630718,0.0,0.0,0.0,0.0,-0.00517931630718,0.0078721654048,0.0,0.0,0.0,0.0,0.0,0.0,0.0,0.0,0.0,0.0,0.0,0.0,0.0,0.0,0.0,0.0,0.0,0.0,0.0,0.0,0.0,0.0,0.0,0.0,0.0,0.0,0.0,0.0308621346631
1616790922192047895,259,1616790922134802341,map,-3.17144514954,-5.77179826157,0.0,0.0,0.0,-0.0598688257873,0.998206253085,0.0588333525781,-0.00455296464197,0.0,0.0,0.0,0.0,-0.00455296464197,0.00748271027949,0.0,0.0,0.0,0.0,0.0,0.0,0.0,0.0,0.0,0.0,0.0,0.0,0.0,0.0,0.0,0.0,0.0,0.0,0.0,0.0,0.0,0.0,0.0,0.0,0.0,0.0,0.0,0.0338034396696
1616790922457073861,260,1616790922400942564,map,-2.90615223405,-5.78409686311,0.0,0.0,0.0,-0.0224293242468,0.999748431063,0.0587857543961,-0.00221645976633,0.0,0.0,0.0,0.0,-0.00221645976633,0.00678897744744,0.0,0.0,0.0,0.0,0.0,0.0,0.0,0.0,0.0,0.0,0.0,0.0,0.0,0.0,0.0,0.0,0.0,0.0,0.0,0.0,0.0,0.0,0.0,0.0,0.0,0.0,0.0,0.0322061085431
1616790922723516147,261,1616790922668123245,map,-2.64720268883,-5.77895984433,0.0,0.0,0.0,0.0102981738918,0.999946972401,0.0620070162921,-0.00065709353596,0.0,0.0,0.0,0.0,-0.000657093535956,0.00635082567813,0.0,0.0,0.0,0.0,0.0,0.0,0.0,0.0,0.0,0.0,0.0,0.0,0.0,0.0,0.0,0.0,0.0,0.0,0.0,0.0,0.0,0.0,0.0,0.0,0.0,0.0,0.0,0.0342577065143
1616790922991854325,262,1616790922937069416,map,-2.39930417355,-5.77754164816,0.0,0.0,0.0,-0.000209371460979,0.999999978082,0.0669697122587,0.0019464130741,0.0,0.0,0.0,0.0,0.0019464130741,0.00624621055215,0.0,0.0,0.0,0.0,0.0,0.0,0.0,0.0,0.0,0.0,0.0,0.0,0.0,0.0,0.0,0.0,0.0,0.0,0.0,0.0,0.0,0.0,0.0,0.0,0.0,0.0,0.0,0.0349167792227
1616790923257251927,263,1616790923200897455,map,-2.16080598194,-5.78641677734,0.0,0.0,0.0,-0.00363440491291,0.999993395529,0.0618896363305,0.00322718325123,0.0,0.0,0.0,0.0,0.00322718325123,0.00734032821381,0.0,0.0,0.0,0.0,0.0,0.0,0.0,0.0,0.0,0.0,0.0,0.0,0.0,0.0,0.0,0.0,0.0,0.0,0.0,0.0,0.0,0.0,0.0,0.0,0.0,0.0,0.0,0.0400813652595
1616790923524097469,264,1616790923468255758,map,-1.92315848033,-5.78402230517,0.0,0.0,0.0,0.00840639451891,0.999964665641,0.0544853719627,0.00418201702663,0.0,0.0,0.0,0.0,0.00418201702663,0.00838991300744,0.0,0.0,0.0,0.0,0.0,0.0,0.0,0.0,0.0,0.0,0.0,0.0,0.0,0.0,0.0,0.0,0.0,0.0,0.0,0.0,0.0,0.0,0.0,0.0,0.0,0.0,0.0,0.0366127528504
1616790923927992219,265,1616790923868069887,map,-1.65550743994,-5.77579612211,0.0,0.0,0.0,0.0119452420132,0.999928653051,0.0507973431961,0.00420898807305,0.0,0.0,0.0,0.0,0.00420898807305,0.00936840893733,0.0,0.0,0.0,0.0,0.0,0.0,0.0,0.0,0.0,0.0,0.0,0.0,0.0,0.0,0.0,0.0,0.0,0.0,0.0,0.0,0.0,0.0,0.0,0.0,0.0,0.0,0.0,0.0415305384737
1616790924592394572,266,1616790924534529924,map,-1.40937496396,-5.76448133637,0.0,0.0,0.0,0.0256513363031,0.999670950336,0.0480971946634,0.00643701347289,0.0,0.0,0.0,0.0,0.00643701347289,0.0116667268209,0.0,0.0,0.0,0.0,0.0,0.0,0.0,0.0,0.0,0.0,0.0,0.0,0.0,0.0,0.0,0.0,0.0,0.0,0.0,0.0,0.0,0.0,0.0,0.0,0.0,0.0,0.0,0.0408584675823
1616790927191684867,267,1616790927134246111,map,-1.23316517286,-5.76202653521,0.0,0.0,0.0,0.0960363708739,0.995377825486,0.0486506507761,0.00583142571898,0.0,0.0,0.0,0.0,0.00583142571898,0.0137320786372,0.0,0.0,0.0,0.0,0.0,0.0,0.0,0.0,0.0,0.0,0.0,0.0,0.0,0.0,0.0,0.0,0.0,0.0,0.0,0.0,0.0,0.0,0.0,0.0,0.0,0.0,0.0,0.043241048311
1616790927864630160,268,1616790927801420212,map,-1.2374641822,-5.76548964819,0.0,0.0,0.0,0.369775676624,0.929121062606,0.049723335588,0.011187974373,0.0,0.0,0.0,0.0,0.011187974373,0.0147478429895,0.0,0.0,0.0,0.0,0.0,0.0,0.0,0.0,0.0,0.0,0.0,0.0,0.0,0.0,0.0,0.0,0.0,0.0,0.0,0.0,0.0,0.0,0.0,0.0,0.0,0.0,0.0,0.039653788095
1616790928595338027,269,1616790928537931204,map,-1.22875789855,-5.77069043866,0.0,0.0,0.0,0.61214243455,0.790747519644,0.0363469148613,0.012945516681,0.0,0.0,0.0,0.0,0.012945516681,0.021704260195,0.0,0.0,0.0,0.0,0.0,0.0,0.0,0.0,0.0,0.0,0.0,0.0,0.0,0.0,0.0,0.0,0.0,0.0,0.0,0.0,0.0,0.0,0.0,0.0,0.0,0.0,0.0,0.0390679080405
1616790931723307982,270,1616790931667098999,map,-1.21284552722,-5.52657800874,0.0,0.0,0.0,0.703700884973,0.710496350792,0.0218330553598,0.0076274598123,0.0,0.0,0.0,0.0,0.0076274598123,0.0385105298272,0.0,0.0,0.0,0.0,0.0,0.0,0.0,0.0,0.0,0.0,0.0,0.0,0.0,0.0,0.0,0.0,0.0,0.0,0.0,0.0,0.0,0.0,0.0,0.0,0.0,0.0,0.0,0.0470011376648
1616790931991411636,271,1616790931936630964,map,-1.21392381624,-5.26326135417,0.0,0.0,0.0,0.704892259817,0.709314388723,0.0157975016284,0.00355050583866,0.0,0.0,0.0,0.0,0.00355050583866,0.050415369648,0.0,0.0,0.0,0.0,0.0,0.0,0.0,0.0,0.0,0.0,0.0,0.0,0.0,0.0,0.0,0.0,0.0,0.0,0.0,0.0,0.0,0.0,0.0,0.0,0.0,0.0,0.0,0.0454136672843
1616790932255053200,272,1616790932200305223,map,-1.22933045369,-4.98896560007,0.0,0.0,0.0,0.717261835651,0.696803745052,0.0139822845773,-0.000927684196099,0.0,0.0,0.0,0.0,-0.000927684196099,0.0601247380048,0.0,0.0,0.0,0.0,0.0,0.0,0.0,0.0,0.0,0.0,0.0,0.0,0.0,0.0,0.0,0.0,0.0,0.0,0.0,0.0,0.0,0.0,0.0,0.0,0.0,0.0,0.0,0.0460686578867
1616790932521768452,273,1616790932466839790,map,-1.24199710427,-4.69775215815,0.0,0.0,0.0,0.726535069145,0.687129386144,0.0133272176141,-0.00501519264739,0.0,0.0,0.0,0.0,-0.00501519264739,0.067504800588,0.0,0.0,0.0,0.0,0.0,0.0,0.0,0.0,0.0,0.0,0.0,0.0,0.0,0.0,0.0,0.0,0.0,0.0,0.0,0.0,0.0,0.0,0.0,0.0,0.0,0.0,0.0,0.0470411679497
1616790932789623108,274,1616790932733911753,map,-1.24639838906,-4.43096331395,0.0,0.0,0.0,0.724096501089,0.68969867124,0.0163581885816,-0.00738717165357,0.0,0.0,0.0,0.0,-0.00738717165357,0.0701724721033,0.0,0.0,0.0,0.0,0.0,0.0,0.0,0.0,0.0,0.0,0.0,0.0,0.0,0.0,0.0,0.0,0.0,0.0,0.0,0.0,0.0,0.0,0.0,0.0,0.0,0.0,0.0,0.0541167228666
1616790933057090768,275,1616790933000577688,map,-1.25152955053,-4.19194391978,0.0,0.0,0.0,0.718181011939,0.695856331501,0.0170512190615,-0.00655061419359,0.0,0.0,0.0,0.0,-0.00655061419359,0.072250836246,0.0,0.0,0.0,0.0,0.0,0.0,0.0,0.0,0.0,0.0,0.0,0.0,0.0,0.0,0.0,0.0,0.0,0.0,0.0,0.0,0.0,0.0,0.0,0.0,0.0,0.0,0.0,0.0511947760078
1616790933324053034,276,1616790933267548800,map,-1.23221072767,-3.96273427872,0.0,0.0,0.0,0.707907464105,0.706305190598,0.0190084072141,-0.0025921704255,0.0,0.0,0.0,0.0,-0.0025921704255,0.0756645126257,0.0,0.0,0.0,0.0,0.0,0.0,0.0,0.0,0.0,0.0,0.0,0.0,0.0,0.0,0.0,0.0,0.0,0.0,0.0,0.0,0.0,0.0,0.0,0.0,0.0,0.0,0.0,0.0562152696497
1616790933591199922,277,1616790933533401012,map,-1.20237220682,-3.73487541756,0.0,0.0,0.0,0.706797477185,0.707415949951,0.0199366600767,0.000290924088827,0.0,0.0,0.0,0.0,0.000290924088828,0.0810193552072,0.0,0.0,0.0,0.0,0.0,0.0,0.0,0.0,0.0,0.0,0.0,0.0,0.0,0.0,0.0,0.0,0.0,0.0,0.0,0.0,0.0,0.0,0.0,0.0,0.0,0.0,0.0,0.0537625524301
1616790933864399942,278,1616790933800783157,map,-1.16823318798,-3.50938529751,0.0,0.0,0.0,0.690051770402,0.723760011444,0.0195955584855,0.00304382907973,0.0,0.0,0.0,0.0,0.00304382907973,0.0842059865692,0.0,0.0,0.0,0.0,0.0,0.0,0.0,0.0,0.0,0.0,0.0,0.0,0.0,0.0,0.0,0.0,0.0,0.0,0.0,0.0,0.0,0.0,0.0,0.0,0.0,0.0,0.0,0.048323312752
1616790934122268106,279,1616790934066867352,map,-1.13667469174,-3.2929261277,0.0,0.0,0.0,0.672510284408,0.740087776798,0.0179935044151,0.00365871406529,0.0,0.0,0.0,0.0,0.00365871406529,0.0886846212681,0.0,0.0,0.0,0.0,0.0,0.0,0.0,0.0,0.0,0.0,0.0,0.0,0.0,0.0,0.0,0.0,0.0,0.0,0.0,0.0,0.0,0.0,0.0,0.0,0.0,0.0,0.0,0.0483750503127
1616790934389662783,280,1616790934333574057,map,-1.10337992159,-3.05188962329,0.0,0.0,0.0,0.673838252044,0.738878887289,0.0182635633651,0.00482030726078,0.0,0.0,0.0,0.0,0.00482030726078,0.0980573201045,0.0,0.0,0.0,0.0,0.0,0.0,0.0,0.0,0.0,0.0,0.0,0.0,0.0,0.0,0.0,0.0,0.0,0.0,0.0,0.0,0.0,0.0,0.0,0.0,0.0,0.0,0.0,0.0522481396272
1616790934658447798,281,1616790934601014853,map,-1.10770496134,-2.82303651794,0.0,0.0,0.0,0.704367355283,0.709835635067,0.0186733077896,0.00487305901471,0.0,0.0,0.0,0.0,0.00487305901471,0.0963427796652,0.0,0.0,0.0,0.0,0.0,0.0,0.0,0.0,0.0,0.0,0.0,0.0,0.0,0.0,0.0,0.0,0.0,0.0,0.0,0.0,0.0,0.0,0.0,0.0,0.0,0.0,0.0,0.057293823783
1616790934925869358,282,1616790934867879868,map,-1.12993055518,-2.53219784604,0.0,0.0,0.0,0.724133379213,0.689659951795,0.0176372840274,8.94612897069e-05,0.0,0.0,0.0,0.0,8.94612897064e-05,0.0918599103551,0.0,0.0,0.0,0.0,0.0,0.0,0.0,0.0,0.0,0.0,0.0,0.0,0.0,0.0,0.0,0.0,0.0,0.0,0.0,0.0,0.0,0.0,0.0,0.0,0.0,0.0,0.0,0.0535058312769
1616790935924875980,283,1616790935867764950,map,-1.16524400126,-2.25463040283,0.0,0.0,0.0,0.686268127694,0.7273486488,0.0181435264115,-0.00368456096593,0.0,0.0,0.0,0.0,-0.00368456096593,0.089815992154,0.0,0.0,0.0,0.0,0.0,0.0,0.0,0.0,0.0,0.0,0.0,0.0,0.0,0.0,0.0,0.0,0.0,0.0,0.0,0.0,0.0,0.0,0.0,0.0,0.0,0.0,0.0,0.0562839240437
1616790937859581826,284,1616790937801121950,map,-1.16161061746,-2.19005914018,0.0,0.0,0.0,0.490158072425,0.871633560641,0.0149241127815,0.0042171951272,0.0,0.0,0.0,0.0,0.0042171951272,0.0851957332144,0.0,0.0,0.0,0.0,0.0,0.0,0.0,0.0,0.0,0.0,0.0,0.0,0.0,0.0,0.0,0.0,0.0,0.0,0.0,0.0,0.0,0.0,0.0,0.0,0.0,0.0,0.0,0.0498262395638
1616790940524708196,285,1616790940467243671,map,-1.09371291922,-2.08741971258,0.0,0.0,0.0,0.256908556632,0.966435716191,0.0212340832897,0.0119010293967,0.0,0.0,0.0,0.0,0.0119010293967,0.0826022489885,0.0,0.0,0.0,0.0,0.0,0.0,0.0,0.0,0.0,0.0,0.0,0.0,0.0,0.0,0.0,0.0,0.0,0.0,0.0,0.0,0.0,0.0,0.0,0.0,0.0,0.0,0.0,0.0507026921696
1616790941589765041,286,1616790941533756733,map,-1.06368258479,-2.04595342209,0.0,0.0,0.0,-0.0224682179432,0.999747557728,0.0326428703505,0.0137995136967,0.0,0.0,0.0,0.0,0.0137995136967,0.0609086691079,0.0,0.0,0.0,0.0,0.0,0.0,0.0,0.0,0.0,0.0,0.0,0.0,0.0,0.0,0.0,0.0,0.0,0.0,0.0,0.0,0.0,0.0,0.0,0.0,0.0,0.0,0.0,0.0411828463742
1616790943128714772,287,1616790943068215609,map,-1.04054941268,-2.01037395741,0.0,0.0,0.0,-0.309632968082,0.950856153725,0.0406010963617,0.00256734636656,0.0,0.0,0.0,0.0,0.00256734636656,0.0434690198159,0.0,0.0,0.0,0.0,0.0,0.0,0.0,0.0,0.0,0.0,0.0,0.0,0.0,0.0,0.0,0.0,0.0,0.0,0.0,0.0,0.0,0.0,0.0,0.0,0.0,0.0,0.0,0.0394912140014
1616790943522765936,288,1616790943466942787,map,-1.04083479933,-1.99423494406,0.0,0.0,0.0,-0.583408852034,0.812178620359,0.0370857267766,-0.00580867375519,0.0,0.0,0.0,0.0,-0.00580867375519,0.043530819304,0.0,0.0,0.0,0.0,0.0,0.0,0.0,0.0,0.0,0.0,0.0,0.0,0.0,0.0,0.0,0.0,0.0,0.0,0.0,0.0,0.0,0.0,0.0,0.0,0.0,0.0,0.0,0.0427225243924
1616790943923929767,289,1616790943866840839,map,-1.06985494656,-1.95400042977,0.0,0.0,0.0,-0.795711747742,0.605675502646,0.0305485086715,-0.00628145257244,0.0,0.0,0.0,0.0,-0.00628145257244,0.0536980421977,0.0,0.0,0.0,0.0,0.0,0.0,0.0,0.0,0.0,0.0,0.0,0.0,0.0,0.0,0.0,0.0,0.0,0.0,0.0,0.0,0.0,0.0,0.0,0.0,0.0,0.0,0.0,0.043596746336
1616790944323334054,290,1616790944266870737,map,-1.1182639883,-1.9406328293,0.0,0.0,0.0,-0.929380896143,0.369122134103,0.0271132918177,0.0020946854151,0.0,0.0,0.0,0.0,0.0020946854151,0.0453708328653,0.0,0.0,0.0,0.0,0.0,0.0,0.0,0.0,0.0,0.0,0.0,0.0,0.0,0.0,0.0,0.0,0.0,0.0,0.0,0.0,0.0,0.0,0.0,0.0,0.0,0.0,0.0,0.0312970494363
1616790944722297949,291,1616790944666839123,map,-1.18182711483,-1.94892104054,0.0,0.0,0.0,-0.997017880791,0.0771708842986,0.0324936772479,0.00963489895988,0.0,0.0,0.0,0.0,0.00963489895988,0.0402723655882,0.0,0.0,0.0,0.0,0.0,0.0,0.0,0.0,0.0,0.0,0.0,0.0,0.0,0.0,0.0,0.0,0.0,0.0,0.0,0.0,0.0,0.0,0.0,0.0,0.0,0.0,0.0,0.0363680540739
1616790945123933553,292,1616790945066956520,map,-1.23586930946,-1.97513863821,0.0,0.0,0.0,0.975305679206,0.220859303878,0.0442065358001,0.00448317849248,0.0,0.0,0.0,0.0,0.00448317849248,0.0332157745904,0.0,0.0,0.0,0.0,0.0,0.0,0.0,0.0,0.0,0.0,0.0,0.0,0.0,0.0,0.0,0.0,0.0,0.0,0.0,0.0,0.0,0.0,0.0,0.0,0.0,0.0,0.0,0.0445165830274
1616790945589765374,293,1616790945533575535,map,-1.250972494,-1.97872549157,0.0,0.0,0.0,0.884899699026,0.465781625511,0.0453184106229,-0.00222067814998,0.0,0.0,0.0,0.0,-0.00222067814998,0.03286893582,0.0,0.0,0.0,0.0,0.0,0.0,0.0,0.0,0.0,0.0,0.0,0.0,0.0,0.0,0.0,0.0,0.0,0.0,0.0,0.0,0.0,0.0,0.0,0.0,0.0,0.0,0.0,0.0476594018466
1616790946600639725,294,1616790946534582615,map,-1.23589838024,-1.97408709338,0.0,0.0,0.0,0.71500473435,0.699119610551,0.0361757610899,-0.00653081720198,0.0,0.0,0.0,0.0,-0.00653081720198,0.0451258664329,0.0,0.0,0.0,0.0,0.0,0.0,0.0,0.0,0.0,0.0,0.0,0.0,0.0,0.0,0.0,0.0,0.0,0.0,0.0,0.0,0.0,0.0,0.0,0.0,0.0,0.0,0.0,0.0532705294233
1616790947791464280,295,1616790947734684706,map,-1.20329881205,-1.94759544698,0.0,0.0,0.0,0.523974755118,0.851733794093,0.0308878778625,-0.00018113389776,0.0,0.0,0.0,0.0,-0.00018113389776,0.051373586707,0.0,0.0,0.0,0.0,0.0,0.0,0.0,0.0,0.0,0.0,0.0,0.0,0.0,0.0,0.0,0.0,0.0,0.0,0.0,0.0,0.0,0.0,0.0,0.0,0.0,0.0,0.0,0.0536071797306
1616790949123527896,296,1616790949067153454,map,-1.16839430758,-1.95589211264,0.0,0.0,0.0,0.311074603987,0.950385495867,0.0304107719095,0.00582959259649,0.0,0.0,0.0,0.0,0.00582959259649,0.0535839376356,0.0,0.0,0.0,0.0,0.0,0.0,0.0,0.0,0.0,0.0,0.0,0.0,0.0,0.0,0.0,0.0,0.0,0.0,0.0,0.0,0.0,0.0,0.0,0.0,0.0,0.0,0.0,0.0591660784349
1616790951789907071,297,1616790951733709097,map,-0.990469312974,-1.90214143097,0.0,0.0,0.0,0.168179142461,0.985756448643,0.0375511365707,0.00860014221328,0.0,0.0,0.0,0.0,0.00860014221328,0.0469988523031,0.0,0.0,0.0,0.0,0.0,0.0,0.0,0.0,0.0,0.0,0.0,0.0,0.0,0.0,0.0,0.0,0.0,0.0,0.0,0.0,0.0,0.0,0.0,0.0,0.0,0.0,0.0,0.0505086115132
1616790953589583562,298,1616790953533706427,map,-0.936759438683,-1.89057739839,0.0,0.0,0.0,-0.091262851812,0.9958268383,0.039070089962,0.00992766113118,0.0,0.0,0.0,0.0,0.00992766113118,0.0365670368198,0.0,0.0,0.0,0.0,0.0,0.0,0.0,0.0,0.0,0.0,0.0,0.0,0.0,0.0,0.0,0.0,0.0,0.0,0.0,0.0,0.0,0.0,0.0,0.0,0.0,0.0,0.0,0.0385264324274
1616790954791192473,299,1616790954734753370,map,-0.926812444012,-1.86408409748,0.0,0.0,0.0,-0.344635845039,0.938736456261,0.0407663184714,0.000436530694323,0.0,0.0,0.0,0.0,0.000436530694323,0.0271652464491,0.0,0.0,0.0,0.0,0.0,0.0,0.0,0.0,0.0,0.0,0.0,0.0,0.0,0.0,0.0,0.0,0.0,0.0,0.0,0.0,0.0,0.0,0.0,0.0,0.0,0.0,0.0,0.0337847527635
1616790955189597460,300,1616790955133536816,map,-0.926957635121,-1.85814943979,0.0,0.0,0.0,-0.60427427744,0.796776378681,0.0386196059301,-0.0086472478759,0.0,0.0,0.0,0.0,-0.0086472478759,0.0347922897302,0.0,0.0,0.0,0.0,0.0,0.0,0.0,0.0,0.0,0.0,0.0,0.0,0.0,0.0,0.0,0.0,0.0,0.0,0.0,0.0,0.0,0.0,0.0,0.0,0.0,0.0,0.0,0.037459031161
1616790955589683616,301,1616790955533356905,map,-0.950760414108,-1.88041791226,0.0,0.0,0.0,-0.812569103876,0.582864865493,0.0312467205621,-0.00681793098555,0.0,0.0,0.0,0.0,-0.00681793098555,0.0396279288127,0.0,0.0,0.0,0.0,0.0,0.0,0.0,0.0,0.0,0.0,0.0,0.0,0.0,0.0,0.0,0.0,0.0,0.0,0.0,0.0,0.0,0.0,0.0,0.0,0.0,0.0,0.0,0.0333214401775
1616790956590028068,302,1616790956532787085,map,-0.991943450798,-1.90687169833,0.0,0.0,0.0,-0.817184774877,0.576375783416,0.0290786437382,0.00265631430786,0.0,0.0,0.0,0.0,0.00265631430786,0.038008861923,0.0,0.0,0.0,0.0,0.0,0.0,0.0,0.0,0.0,0.0,0.0,0.0,0.0,0.0,0.0,0.0,0.0,0.0,0.0,0.0,0.0,0.0,0.0,0.0,0.0,0.0,0.0,0.0299171365984
1616790956991885062,303,1616790956935995817,map,-0.974934690754,-1.90698910969,0.0,0.0,0.0,-0.60224873971,0.798308496459,0.0239020101813,0.00462656408126,0.0,0.0,0.0,0.0,0.00462656408126,0.0493311585205,0.0,0.0,0.0,0.0,0.0,0.0,0.0,0.0,0.0,0.0,0.0,0.0,0.0,0.0,0.0,0.0,0.0,0.0,0.0,0.0,0.0,0.0,0.0,0.0,0.0,0.0,0.0,0.0345205299834
1616790957391622436,304,1616790957333611250,map,-0.959208092639,-1.90528479224,0.0,0.0,0.0,-0.341652923712,0.939826196549,0.0240625764176,-0.00334729442736,0.0,0.0,0.0,0.0,-0.00334729442736,0.0493389758106,0.0,0.0,0.0,0.0,0.0,0.0,0.0,0.0,0.0,0.0,0.0,0.0,0.0,0.0,0.0,0.0,0.0,0.0,0.0,0.0,0.0,0.0,0.0,0.0,0.0,0.0,0.0,0.0333234777025
1616790957790586372,305,1616790957734170675,map,-0.940427189606,-1.90705826811,0.0,0.0,0.0,-0.0468065789312,0.998903971445,0.0345673866096,-0.00817939279683,0.0,0.0,0.0,0.0,-0.00817939279683,0.0373151106993,0.0,0.0,0.0,0.0,0.0,0.0,0.0,0.0,0.0,0.0,0.0,0.0,0.0,0.0,0.0,0.0,0.0,0.0,0.0,0.0,0.0,0.0,0.0,0.0,0.0,0.0,0.0,0.0396216021245
1616790958189001555,306,1616790958133649588,map,-0.920115198756,-1.91721490911,0.0,0.0,0.0,0.261582575912,0.965181100094,0.0444293807764,-0.00262607288626,0.0,0.0,0.0,0.0,-0.00262607288626,0.0303789987081,0.0,0.0,0.0,0.0,0.0,0.0,0.0,0.0,0.0,0.0,0.0,0.0,0.0,0.0,0.0,0.0,0.0,0.0,0.0,0.0,0.0,0.0,0.0,0.0,0.0,0.0,0.0,0.0415329647316
1616790958591522369,307,1616790958534351826,map,-0.920356687324,-1.92432281968,0.0,0.0,0.0,0.542446714126,0.840090210831,0.0439969204489,0.00791768062844,0.0,0.0,0.0,0.0,0.00791768062844,0.0336333327469,0.0,0.0,0.0,0.0,0.0,0.0,0.0,0.0,0.0,0.0,0.0,0.0,0.0,0.0,0.0,0.0,0.0,0.0,0.0,0.0,0.0,0.0,0.0,0.0,0.0,0.0,0.0,0.048714380026
1616790958992221045,308,1616790958935977697,map,-0.950157328864,-1.94348287457,0.0,0.0,0.0,0.772063509121,0.635545386171,0.0361015041085,0.00965429852772,0.0,0.0,0.0,0.0,0.00965429852772,0.0476844026141,0.0,0.0,0.0,0.0,0.0,0.0,0.0,0.0,0.0,0.0,0.0,0.0,0.0,0.0,0.0,0.0,0.0,0.0,0.0,0.0,0.0,0.0,0.0,0.0,0.0,0.0,0.0,0.0484927755947
1616790959390033349,309,1616790959333699226,map,-0.987401137605,-1.98699625897,0.0,0.0,0.0,0.924605092614,0.380927056945,0.0346437841556,-0.00184315573476,0.0,0.0,0.0,0.0,-0.00184315573476,0.0582847091422,0.0,0.0,0.0,0.0,0.0,0.0,0.0,0.0,0.0,0.0,0.0,0.0,0.0,0.0,0.0,0.0,0.0,0.0,0.0,0.0,0.0,0.0,0.0,0.0,0.0,0.0,0.0,0.0514145174198
1616790959789910557,310,1616790959733749866,map,-1.06780413475,-1.9921098139,0.0,0.0,0.0,0.994268630864,0.106910662142,0.0538453629948,-0.0115678749086,0.0,0.0,0.0,0.0,-0.0115678749086,0.0498590322973,0.0,0.0,0.0,0.0,0.0,0.0,0.0,0.0,0.0,0.0,0.0,0.0,0.0,0.0,0.0,0.0,0.0,0.0,0.0,0.0,0.0,0.0,0.0,0.0,0.0,0.0,0.0,0.0583065700819
1616790960190230802,311,1616790960134097815,map,-1.2191881942,-1.95491713091,0.0,0.0,0.0,-0.985088459169,0.172048619908,0.0640426607774,-0.0099886277573,0.0,0.0,0.0,0.0,-0.0099886277573,0.0407302630854,0.0,0.0,0.0,0.0,0.0,0.0,0.0,0.0,0.0,0.0,0.0,0.0,0.0,0.0,0.0,0.0,0.0,0.0,0.0,0.0,0.0,0.0,0.0,0.0,0.0,0.0,0.0,0.0552522211028
1616790960723310872,312,1616790960667109966,map,-1.27595332109,-1.93010064766,0.0,0.0,0.0,-0.888477907371,0.458919391738,0.0609481129747,0.0004354006992,0.0,0.0,0.0,0.0,0.0004354006992,0.03282770071,0.0,0.0,0.0,0.0,0.0,0.0,0.0,0.0,0.0,0.0,0.0,0.0,0.0,0.0,0.0,0.0,0.0,0.0,0.0,0.0,0.0,0.0,0.0,0.0,0.0,0.0,0.0,0.0501335746156
1616790962058813620,313,1616790962000492811,map,-1.24923679544,-1.90716711957,0.0,0.0,0.0,-0.889848203606,0.456256698075,0.0527618851728,0.00238349570561,0.0,0.0,0.0,0.0,0.00238349570561,0.038439175102,0.0,0.0,0.0,0.0,0.0,0.0,0.0,0.0,0.0,0.0,0.0,0.0,0.0,0.0,0.0,0.0,0.0,0.0,0.0,0.0,0.0,0.0,0.0,0.0,0.0,0.0,0.0,0.0458926248835
1616790962456186974,314,1616790962400136948,map,-1.29766903424,-1.91204202968,0.0,0.0,0.0,-0.982013720021,0.188809569911,0.0539329553259,0.0060525798984,0.0,0.0,0.0,0.0,0.0060525798984,0.0337609225153,0.0,0.0,0.0,0.0,0.0,0.0,0.0,0.0,0.0,0.0,0.0,0.0,0.0,0.0,0.0,0.0,0.0,0.0,0.0,0.0,0.0,0.0,0.0,0.0,0.0,0.0,0.0,0.0408937072034
1616790962856187588,315,1616790962800496101,map,-1.34886678589,-1.93242017469,0.0,0.0,0.0,0.994029741925,0.109109450409,0.0603880890133,0.00583624280616,0.0,0.0,0.0,0.0,0.00583624280616,0.0269770917105,0.0,0.0,0.0,0.0,0.0,0.0,0.0,0.0,0.0,0.0,0.0,0.0,0.0,0.0,0.0,0.0,0.0,0.0,0.0,0.0,0.0,0.0,0.0,0.0,0.0,0.0,0.0,0.0502807090175
1616790963256069338,316,1616790963199798822,map,-1.35455808963,-1.9327720995,0.0,0.0,0.0,0.91887834149,0.394540990951,0.0607678754983,-0.00088286001981,0.0,0.0,0.0,0.0,-0.00088286001981,0.0265920817223,0.0,0.0,0.0,0.0,0.0,0.0,0.0,0.0,0.0,0.0,0.0,0.0,0.0,0.0,0.0,0.0,0.0,0.0,0.0,0.0,0.0,0.0,0.0,0.0,0.0,0.0,0.0,0.0610786122073
1616790963992504444,317,1616790963936369181,map,-1.31258552703,-1.94152273677,0.0,0.0,0.0,0.767042322259,0.641596505496,0.0574804284762,-0.00320286731551,0.0,0.0,0.0,0.0,-0.00320286731551,0.0349643572737,0.0,0.0,0.0,0.0,0.0,0.0,0.0,0.0,0.0,0.0,0.0,0.0,0.0,0.0,0.0,0.0,0.0,0.0,0.0,0.0,0.0,0.0,0.0,0.0,0.0,0.0,0.0,0.0638289281467
1616790964790911090,318,1616790964733631372,map,-1.27263094718,-1.7015204379,0.0,0.0,0.0,0.688405725004,0.725325828701,0.052365392129,0.000969676179228,0.0,0.0,0.0,0.0,0.000969676179228,0.0405903292409,0.0,0.0,0.0,0.0,0.0,0.0,0.0,0.0,0.0,0.0,0.0,0.0,0.0,0.0,0.0,0.0,0.0,0.0,0.0,0.0,0.0,0.0,0.0,0.0,0.0,0.0,0.0,0.0802733207748
1616790965057078423,319,1616790964999887228,map,-1.1913765015,-1.48184674152,0.0,0.0,0.0,0.654392295213,0.756155224783,0.0484860738433,0.00594971604229,0.0,0.0,0.0,0.0,0.00594971604229,0.0506104278331,0.0,0.0,0.0,0.0,0.0,0.0,0.0,0.0,0.0,0.0,0.0,0.0,0.0,0.0,0.0,0.0,0.0,0.0,0.0,0.0,0.0,0.0,0.0,0.0,0.0,0.0,0.0,0.0733076151603
1616790965323878264,320,1616790965266750813,map,-1.13621960424,-1.25760995364,0.0,0.0,0.0,0.673372234969,0.739303613662,0.0475932801478,0.00842169518926,0.0,0.0,0.0,0.0,0.00842169518926,0.0552277006137,0.0,0.0,0.0,0.0,0.0,0.0,0.0,0.0,0.0,0.0,0.0,0.0,0.0,0.0,0.0,0.0,0.0,0.0,0.0,0.0,0.0,0.0,0.0,0.0,0.0,0.0,0.0,0.0758703601881
1616790965591441269,321,1616790965534442425,map,-1.0985989667,-1.01954018489,0.0,0.0,0.0,0.690195811481,0.723622651535,0.0383847441451,0.00824400997572,0.0,0.0,0.0,0.0,0.00824400997572,0.0594252451977,0.0,0.0,0.0,0.0,0.0,0.0,0.0,0.0,0.0,0.0,0.0,0.0,0.0,0.0,0.0,0.0,0.0,0.0,0.0,0.0,0.0,0.0,0.0,0.0,0.0,0.0,0.0,0.0631769492258
1616790965857263598,322,1616790965800317049,map,-1.07826839597,-0.807101101904,0.0,0.0,0.0,0.707022010674,0.707191541537,0.0352656449441,0.0061623411172,0.0,0.0,0.0,0.0,0.0061623411172,0.0605812055493,0.0,0.0,0.0,0.0,0.0,0.0,0.0,0.0,0.0,0.0,0.0,0.0,0.0,0.0,0.0,0.0,0.0,0.0,0.0,0.0,0.0,0.0,0.0,0.0,0.0,0.0,0.0,0.0593227750622
1616790966259157873,323,1616790966200642109,map,-1.07566498759,-0.564515015087,0.0,0.0,0.0,0.742964199195,0.669331157735,0.0226696689823,0.00317295946555,0.0,0.0,0.0,0.0,0.00317295946555,0.0602045662242,0.0,0.0,0.0,0.0,0.0,0.0,0.0,0.0,0.0,0.0,0.0,0.0,0.0,0.0,0.0,0.0,0.0,0.0,0.0,0.0,0.0,0.0,0.0,0.0,0.0,0.0,0.0,0.0579791134348
1616790966856730842,324,1616790966800279140,map,-1.11218598463,-0.328799788201,0.0,0.0,0.0,0.774991426257,0.631971747176,0.0245659445659,-0.000526537472014,0.0,0.0,0.0,0.0,-0.000526537472014,0.0580747077432,0.0,0.0,0.0,0.0,0.0,0.0,0.0,0.0,0.0,0.0,0.0,0.0,0.0,0.0,0.0,0.0,0.0,0.0,0.0,0.0,0.0,0.0,0.0,0.0,0.0,0.0,0.0,0.0662827296779
1616790968126816523,325,1616790968067281485,map,-1.16867189414,-0.0895752691965,0.0,0.0,0.0,0.809833010019,0.586660460473,0.0248290440091,-0.00277522202006,0.0,0.0,0.0,0.0,-0.00277522202006,0.0542900284389,0.0,0.0,0.0,0.0,0.0,0.0,0.0,0.0,0.0,0.0,0.0,0.0,0.0,0.0,0.0,0.0,0.0,0.0,0.0,0.0,0.0,0.0,0.0,0.0,0.0,0.0,0.0,0.0633772891669
1616790969925435706,326,1616790969866530180,map,-1.1916782028,-0.0626866664037,0.0,0.0,0.0,0.944160372908,0.329486251958,0.0247528274142,-0.0082495162941,0.0,0.0,0.0,0.0,-0.0082495162941,0.0492858911015,0.0,0.0,0.0,0.0,0.0,0.0,0.0,0.0,0.0,0.0,0.0,0.0,0.0,0.0,0.0,0.0,0.0,0.0,0.0,0.0,0.0,0.0,0.0,0.0,0.0,0.0,0.0,0.0597151527135
1616790970523541659,327,1616790970466511965,map,-1.20343869642,-0.0833416485848,0.0,0.0,0.0,0.997406716459,0.071971118945,0.033326624373,-0.0136976185132,0.0,0.0,0.0,0.0,-0.0136976185132,0.0430582608868,0.0,0.0,0.0,0.0,0.0,0.0,0.0,0.0,0.0,0.0,0.0,0.0,0.0,0.0,0.0,0.0,0.0,0.0,0.0,0.0,0.0,0.0,0.0,0.0,0.0,0.0,0.0,0.054436530116
1616790971056100189,328,1616790970999872208,map,-1.22399699784,-0.0731573734844,0.0,0.0,0.0,-0.98595767319,0.166995409154,0.0417220228597,-0.00941008756271,0.0,0.0,0.0,0.0,-0.00941008756271,0.0390067629734,0.0,0.0,0.0,0.0,0.0,0.0,0.0,0.0,0.0,0.0,0.0,0.0,0.0,0.0,0.0,0.0,0.0,0.0,0.0,0.0,0.0,0.0,0.0,0.0,0.0,0.0,0.0,0.0436636353329
1616790971592628391,329,1616790971533487320,map,-1.20013536608,-0.0332504296,0.0,0.0,0.0,-0.903723572185,0.42811646205,0.0422036332678,0.00168608268788,0.0,0.0,0.0,0.0,0.00168608268788,0.0389755708197,0.0,0.0,0.0,0.0,0.0,0.0,0.0,0.0,0.0,0.0,0.0,0.0,0.0,0.0,0.0,0.0,0.0,0.0,0.0,0.0,0.0,0.0,0.0,0.0,0.0,0.0,0.0,0.0326882940783
1616790972389776158,330,1616790972333381653,map,-1.17650819337,0.0112787557454,0.0,0.0,0.0,-0.747263855726,0.664527448587,0.031189189378,0.00960617571863,0.0,0.0,0.0,0.0,0.00960617571863,0.0511942760152,0.0,0.0,0.0,0.0,0.0,0.0,0.0,0.0,0.0,0.0,0.0,0.0,0.0,0.0,0.0,0.0,0.0,0.0,0.0,0.0,0.0,0.0,0.0,0.0,0.0,0.0,0.0,0.034649218903
1616790975389790292,331,1616790975333992720,map,-1.23664552514,-0.139858695915,0.0,0.0,0.0,-0.904282602414,0.426934391883,0.0243690715396,0.0133879871413,0.0,0.0,0.0,0.0,0.0133879871413,0.0589230944155,0.0,0.0,0.0,0.0,0.0,0.0,0.0,0.0,0.0,0.0,0.0,0.0,0.0,0.0,0.0,0.0,0.0,0.0,0.0,0.0,0.0,0.0,0.0,0.0,0.0,0.0,0.0,0.0386807554317
1616790975856893447,332,1616790975799337864,map,-1.38252389673,-0.19430133801,0.0,0.0,0.0,-0.989461770177,0.144794355411,0.0300152191951,0.0139503912562,0.0,0.0,0.0,0.0,0.0139503912562,0.0457221134656,0.0,0.0,0.0,0.0,0.0,0.0,0.0,0.0,0.0,0.0,0.0,0.0,0.0,0.0,0.0,0.0,0.0,0.0,0.0,0.0,0.0,0.0,0.0,0.0,0.0,0.0,0.0,0.0316342598539
1616790976191274744,333,1616790976133227110,map,-1.65158044868,-0.219604564335,0.0,0.0,0.0,0.998565232756,0.0535488181968,0.042442704578,0.00894627105187,0.0,0.0,0.0,0.0,0.00894627105187,0.0304045187996,0.0,0.0,0.0,0.0,0.0,0.0,0.0,0.0,0.0,0.0,0.0,0.0,0.0,0.0,0.0,0.0,0.0,0.0,0.0,0.0,0.0,0.0,0.0,0.0,0.0,0.0,0.0,0.0372015228103
1616790976455680244,334,1616790976398669243,map,-1.89085720241,-0.161500868005,0.0,0.0,0.0,0.992324699074,0.123659579521,0.0465699726013,0.00189735998564,0.0,0.0,0.0,0.0,0.00189735998564,0.0227446135819,0.0,0.0,0.0,0.0,0.0,0.0,0.0,0.0,0.0,0.0,0.0,0.0,0.0,0.0,0.0,0.0,0.0,0.0,0.0,0.0,0.0,0.0,0.0,0.0,0.0,0.0,0.0,0.0377659470361
1616790976726429105,335,1616790976667603254,map,-2.12488516342,-0.105770752606,0.0,0.0,0.0,0.997465403409,0.0711531376878,0.0497230250761,-0.000516824890863,0.0,0.0,0.0,0.0,-0.000516824890863,0.017906478739,0.0,0.0,0.0,0.0,0.0,0.0,0.0,0.0,0.0,0.0,0.0,0.0,0.0,0.0,0.0,0.0,0.0,0.0,0.0,0.0,0.0,0.0,0.0,0.0,0.0,0.0,0.0,0.0337811376402
1616790977003589415,336,1616790976935590029,map,-2.38135261609,-0.0680593294859,0.0,0.0,0.0,0.998546853088,0.0538904647224,0.0515476530808,-0.00322815077461,0.0,0.0,0.0,0.0,-0.00322815077461,0.0139752443079,0.0,0.0,0.0,0.0,0.0,0.0,0.0,0.0,0.0,0.0,0.0,0.0,0.0,0.0,0.0,0.0,0.0,0.0,0.0,0.0,0.0,0.0,0.0,0.0,0.0,0.0,0.0,0.0332268658779
1616790977256311551,337,1616790977199504375,map,-2.63978409969,-0.0422063817133,0.0,0.0,0.0,0.999400488051,0.0346217342707,0.0550066415438,-0.00189937256238,0.0,0.0,0.0,0.0,-0.00189937256238,0.0102667706048,0.0,0.0,0.0,0.0,0.0,0.0,0.0,0.0,0.0,0.0,0.0,0.0,0.0,0.0,0.0,0.0,0.0,0.0,0.0,0.0,0.0,0.0,0.0,0.0,0.0,0.0,0.0,0.0360437726694
1616790977522459068,338,1616790977466760874,map,-2.88049432162,-0.0408372224071,0.0,0.0,0.0,0.999718707388,0.0237172110289,0.0649069625621,-0.00166291524922,0.0,0.0,0.0,0.0,-0.00166291524922,0.00891269556703,0.0,0.0,0.0,0.0,0.0,0.0,0.0,0.0,0.0,0.0,0.0,0.0,0.0,0.0,0.0,0.0,0.0,0.0,0.0,0.0,0.0,0.0,0.0,0.0,0.0,0.0,0.0,0.0330732024937
1616790977790779833,339,1616790977732976913,map,-3.12511500493,-0.0286980101599,0.0,0.0,0.0,0.999764928593,0.0216815025886,0.0673920885868,-0.00237749382411,0.0,0.0,0.0,0.0,-0.00237749382411,0.00755434181869,0.0,0.0,0.0,0.0,0.0,0.0,0.0,0.0,0.0,0.0,0.0,0.0,0.0,0.0,0.0,0.0,0.0,0.0,0.0,0.0,0.0,0.0,0.0,0.0,0.0,0.0,0.0,0.0273500756927
1616790978189547570,340,1616790978133932352,map,-3.37170224279,-0.0148381022904,0.0,0.0,0.0,0.998826929296,0.0484227768002,0.073798921108,-0.00294150002409,0.0,0.0,0.0,0.0,-0.00294150002409,0.00648750664795,0.0,0.0,0.0,0.0,0.0,0.0,0.0,0.0,0.0,0.0,0.0,0.0,0.0,0.0,0.0,0.0,0.0,0.0,0.0,0.0,0.0,0.0,0.0,0.0,0.0,0.0,0.0,0.0289669302493
1616790978789569585,341,1616790978733266115,map,-3.58217518471,0.0107426742604,0.0,0.0,0.0,0.99693450049,0.0782406654624,0.0743140406723,-0.00354896721322,0.0,0.0,0.0,0.0,-0.00354896721322,0.00618615520984,0.0,0.0,0.0,0.0,0.0,0.0,0.0,0.0,0.0,0.0,0.0,0.0,0.0,0.0,0.0,0.0,0.0,0.0,0.0,0.0,0.0,0.0,0.0,0.0,0.0,0.0,0.0,0.0280420385167
1616790980923525781,342,1616790980866637468,map,-3.75069270101,0.0378357123655,0.0,0.0,0.0,-0.998949684726,0.0458206000178,0.0788012172611,-0.00552326521087,0.0,0.0,0.0,0.0,-0.00552326521087,0.00655289369289,0.0,0.0,0.0,0.0,0.0,0.0,0.0,0.0,0.0,0.0,0.0,0.0,0.0,0.0,0.0,0.0,0.0,0.0,0.0,0.0,0.0,0.0,0.0,0.0,0.0,0.0,0.0,0.0274531884359
1616790981656489043,343,1616790981599242210,map,-3.737205315,0.0295434018022,0.0,0.0,0.0,-0.939336753589,0.342996302251,0.0775924999417,0.000326172785425,0.0,0.0,0.0,0.0,0.000326172785425,0.00759748111154,0.0,0.0,0.0,0.0,0.0,0.0,0.0,0.0,0.0,0.0,0.0,0.0,0.0,0.0,0.0,0.0,0.0,0.0,0.0,0.0,0.0,0.0,0.0,0.0,0.0,0.0,0.0,0.022482131503
1616790982389117806,344,1616790982333291769,map,-3.74930283632,0.0186866835834,0.0,0.0,0.0,-0.802757830968,0.59630517759,0.0558592953878,0.00740372629499,0.0,0.0,0.0,0.0,0.00740372629499,0.0171959769821,0.0,0.0,0.0,0.0,0.0,0.0,0.0,0.0,0.0,0.0,0.0,0.0,0.0,0.0,0.0,0.0,0.0,0.0,0.0,0.0,0.0,0.0,0.0,0.0,0.0,0.0,0.0,0.0202965433839
1616790985452634119,345,1616790985398109198,map,-3.77321096335,0.0025076208406,0.0,0.0,0.0,-0.578233401394,0.815871395204,0.0343136546505,0.00372701241132,0.0,0.0,0.0,0.0,0.00372701241132,0.0371469915646,0.0,0.0,0.0,0.0,0.0,0.0,0.0,0.0,0.0,0.0,0.0,0.0,0.0,0.0,0.0,0.0,0.0,0.0,0.0,0.0,0.0,0.0,0.0,0.0,0.0,0.0,0.0,0.0295870167
1616790985854150754,346,1616790985799125433,map,-3.68714449861,-0.103847741856,0.0,0.0,0.0,-0.34433591572,0.938846514157,0.0273696353649,-0.00497913690709,0.0,0.0,0.0,0.0,-0.00497913690709,0.032095767332,0.0,0.0,0.0,0.0,0.0,0.0,0.0,0.0,0.0,0.0,0.0,0.0,0.0,0.0,0.0,0.0,0.0,0.0,0.0,0.0,0.0,0.0,0.0,0.0,0.0,0.0,0.0,0.0248946658908
1616790986188855379,347,1616790986133022070,map,-3.4759839067,-0.211182667457,0.0,0.0,0.0,-0.135017650597,0.990843193461,0.0358451234104,-0.00874236553821,0.0,0.0,0.0,0.0,-0.00874236553821,0.0237082610857,0.0,0.0,0.0,0.0,0.0,0.0,0.0,0.0,0.0,0.0,0.0,0.0,0.0,0.0,0.0,0.0,0.0,0.0,0.0,0.0,0.0,0.0,0.0,0.0,0.0,0.0,0.0,0.0324899133091
1616790986454598691,348,1616790986399383783,map,-3.21913757448,-0.232329940081,0.0,0.0,0.0,0.0230059270172,0.999735328636,0.0429684889365,-0.00652039478449,0.0,0.0,0.0,0.0,-0.00652039478449,0.0161928818271,0.0,0.0,0.0,0.0,0.0,0.0,0.0,0.0,0.0,0.0,0.0,0.0,0.0,0.0,0.0,0.0,0.0,0.0,0.0,0.0,0.0,0.0,0.0,0.0,0.0,0.0,0.0,0.0446394339868
1616790986791014942,349,1616790986733886957,map,-2.99077471601,-0.194784760165,0.0,0.0,0.0,0.17220541259,0.985061062003,0.0441975760929,-0.00207552304537,0.0,0.0,0.0,0.0,-0.00207552304537,0.0144933165062,0.0,0.0,0.0,0.0,0.0,0.0,0.0,0.0,0.0,0.0,0.0,0.0,0.0,0.0,0.0,0.0,0.0,0.0,0.0,0.0,0.0,0.0,0.0,0.0,0.0,0.0,0.0,0.0418010756085
1616790987191197064,350,1616790987133960485,map,-2.74266843596,-0.094580554021,0.0,0.0,0.0,0.185604095382,0.982624607761,0.0427351555574,0.00158388136583,0.0,0.0,0.0,0.0,0.00158388136583,0.0158999129275,0.0,0.0,0.0,0.0,0.0,0.0,0.0,0.0,0.0,0.0,0.0,0.0,0.0,0.0,0.0,0.0,0.0,0.0,0.0,0.0,0.0,0.0,0.0,0.0,0.0,0.0,0.0,0.0440150116468
1616790987456128498,351,1616790987400508642,map,-2.51538571468,-0.0308147833073,0.0,0.0,0.0,0.0973902473978,0.995246270886,0.0411993076264,0.00214280989513,0.0,0.0,0.0,0.0,0.00214280989513,0.0173036294744,0.0,0.0,0.0,0.0,0.0,0.0,0.0,0.0,0.0,0.0,0.0,0.0,0.0,0.0,0.0,0.0,0.0,0.0,0.0,0.0,0.0,0.0,0.0,0.0,0.0,0.0,0.0,0.0450253765051
1616790987723143651,352,1616790987666359901,map,-2.27667351332,-0.00816919977817,0.0,0.0,0.0,0.0308286175146,0.999524685209,0.0438385382317,0.00292946435207,0.0,0.0,0.0,0.0,0.00292946435207,0.0191164358202,0.0,0.0,0.0,0.0,0.0,0.0,0.0,0.0,0.0,0.0,0.0,0.0,0.0,0.0,0.0,0.0,0.0,0.0,0.0,0.0,0.0,0.0,0.0,0.0,0.0,0.0,0.0,0.0441310118648
1616790987992902414,353,1616790987936729908,map,-2.02328966021,-0.00888166014183,0.0,0.0,0.0,-0.00389863472538,0.999992400295,0.0403095441937,0.00253503199183,0.0,0.0,0.0,0.0,0.00253503199183,0.0208960974596,0.0,0.0,0.0,0.0,0.0,0.0,0.0,0.0,0.0,0.0,0.0,0.0,0.0,0.0,0.0,0.0,0.0,0.0,0.0,0.0,0.0,0.0,0.0,0.0,0.0,0.0,0.0,0.0473577415247
1616790988323180725,354,1616790988266773939,map,-1.78394577211,-0.0161539851449,0.0,0.0,0.0,0.0114911688167,0.99993397434,0.0384444896323,0.00376739405469,0.0,0.0,0.0,0.0,0.00376739405469,0.0225883153607,0.0,0.0,0.0,0.0,0.0,0.0,0.0,0.0,0.0,0.0,0.0,0.0,0.0,0.0,0.0,0.0,0.0,0.0,0.0,0.0,0.0,0.0,0.0,0.0,0.0,0.0,0.0,0.0524315068634
1616790988790961264,355,1616790988733365297,map,-1.55850336908,-0.0308749115246,0.0,0.0,0.0,-0.00593123181034,0.99998241009,0.041434394554,0.00418663572302,0.0,0.0,0.0,0.0,0.00418663572302,0.025462986954,0.0,0.0,0.0,0.0,0.0,0.0,0.0,0.0,0.0,0.0,0.0,0.0,0.0,0.0,0.0,0.0,0.0,0.0,0.0,0.0,0.0,0.0,0.0,0.0,0.0,0.0,0.0,0.0571400867625
1616790989658903123,356,1616790989599844217,map,-1.33584032482,-0.0263065342335,0.0,0.0,0.0,0.0332041485677,0.999448590233,0.0394742752091,0.00508117837664,0.0,0.0,0.0,0.0,0.00508117837664,0.0286295382596,0.0,0.0,0.0,0.0,0.0,0.0,0.0,0.0,0.0,0.0,0.0,0.0,0.0,0.0,0.0,0.0,0.0,0.0,0.0,0.0,0.0,0.0,0.0,0.0,0.0,0.0,0.0,0.0571449741953
1616790991323322394,357,1616790991266457796,map,-1.28340813926,-0.015167140916,0.0,0.0,0.0,-0.206218620552,0.978505943026,0.0448871929844,0.00232264257767,0.0,0.0,0.0,0.0,0.00232264257767,0.0218217344662,0.0,0.0,0.0,0.0,0.0,0.0,0.0,0.0,0.0,0.0,0.0,0.0,0.0,0.0,0.0,0.0,0.0,0.0,0.0,0.0,0.0,0.0,0.0,0.0,0.0,0.0,0.0,0.0505937535497
1616790991991731424,358,1616790991935375929,map,-1.25232037269,0.00610008284106,0.0,0.0,0.0,-0.460988994678,0.887405852351,0.043092930805,-0.00558265134987,0.0,0.0,0.0,0.0,-0.00558265134987,0.0241614861706,0.0,0.0,0.0,0.0,0.0,0.0,0.0,0.0,0.0,0.0,0.0,0.0,0.0,0.0,0.0,0.0,0.0,0.0,0.0,0.0,0.0,0.0,0.0,0.0,0.0,0.0,0.0,0.050404755307
1616790993055452137,359,1616790992999337196,map,-1.24331353165,0.0326520562003,0.0,0.0,0.0,-0.663331798951,0.748325413507,0.0286316555266,-0.0056826283436,0.0,0.0,0.0,0.0,-0.0056826283436,0.0305184131702,0.0,0.0,0.0,0.0,0.0,0.0,0.0,0.0,0.0,0.0,0.0,0.0,0.0,0.0,0.0,0.0,0.0,0.0,0.0,0.0,0.0,0.0,0.0,0.0,0.0,0.0,0.0,0.0427074416261
1616790995853342276,360,1616790995797935486,map,-1.24977625493,-0.153067805866,0.0,0.0,0.0,-0.747291862724,0.664495953265,0.0190504784644,-0.00101704102519,0.0,0.0,0.0,0.0,-0.00101704102519,0.0350051956091,0.0,0.0,0.0,0.0,0.0,0.0,0.0,0.0,0.0,0.0,0.0,0.0,0.0,0.0,0.0,0.0,0.0,0.0,0.0,0.0,0.0,0.0,0.0,0.0,0.0,0.0,0.0,0.0385743126929
1616790997324553539,361,1616790997265702486,map,-1.23973286841,-0.345625936861,0.0,0.0,0.0,-0.697967264626,0.716129665291,0.0148744959802,0.00135295870446,0.0,0.0,0.0,0.0,0.00135295870446,0.0395449459384,0.0,0.0,0.0,0.0,0.0,0.0,0.0,0.0,0.0,0.0,0.0,0.0,0.0,0.0,0.0,0.0,0.0,0.0,0.0,0.0,0.0,0.0,0.0,0.0,0.0,0.0,0.0,0.0344329344633
1616791000324844875,362,1616791000265999317,map,-1.25382239491,-0.409166912003,0.0,0.0,0.0,-0.853768444959,0.520652900109,0.0129311007323,0.00315581448697,0.0,0.0,0.0,0.0,0.00315581448697,0.0428092826301,0.0,0.0,0.0,0.0,0.0,0.0,0.0,0.0,0.0,0.0,0.0,0.0,0.0,0.0,0.0,0.0,0.0,0.0,0.0,0.0,0.0,0.0,0.0,0.0,0.0,0.0,0.0,0.0227411118738
1616791001924235048,363,1616791001866456032,map,-1.25906565619,-0.387138435653,0.0,0.0,0.0,-0.960744773753,0.277433739307,0.0174447786273,0.0114068889104,0.0,0.0,0.0,0.0,0.0114068889104,0.0455065438528,0.0,0.0,0.0,0.0,0.0,0.0,0.0,0.0,0.0,0.0,0.0,0.0,0.0,0.0,0.0,0.0,0.0,0.0,0.0,0.0,0.0,0.0,0.0,0.0,0.0,0.0,0.0,0.0204542552025
1616791003456231184,364,1616791003399845600,map,-1.28602704787,-0.41766953314,0.0,0.0,0.0,-0.999736362004,0.0229609774861,0.0278278371444,0.0127042665901,0.0,0.0,0.0,0.0,0.0127042665901,0.0355707236552,0.0,0.0,0.0,0.0,0.0,0.0,0.0,0.0,0.0,0.0,0.0,0.0,0.0,0.0,0.0,0.0,0.0,0.0,0.0,0.0,0.0,0.0,0.0,0.0,0.0,0.0,0.0,0.0207854781363
1616791004391987912,365,1616791004333098412,map,-1.32673316964,-0.458947027913,0.0,0.0,0.0,0.96745932125,0.253026602804,0.0408628459755,0.00687427717736,0.0,0.0,0.0,0.0,0.00687427717736,0.0296972645825,0.0,0.0,0.0,0.0,0.0,0.0,0.0,0.0,0.0,0.0,0.0,0.0,0.0,0.0,0.0,0.0,0.0,0.0,0.0,0.0,0.0,0.0,0.0,0.0,0.0,0.0,0.0,0.0290956636608
1616791005326344130,366,1616791005266588449,map,-1.34335152727,-0.480574222153,0.0,0.0,0.0,0.869713776205,0.493556427858,0.046127305151,-0.00261089403278,0.0,0.0,0.0,0.0,-0.00261089403278,0.0310047411637,0.0,0.0,0.0,0.0,0.0,0.0,0.0,0.0,0.0,0.0,0.0,0.0,0.0,0.0,0.0,0.0,0.0,0.0,0.0,0.0,0.0,0.0,0.0,0.0,0.0,0.0,0.0,0.036907127327
1616791006261675733,367,1616791006201421499,map,-1.339646536,-0.496798653285,0.0,0.0,0.0,0.685199550595,0.728355391183,0.0386833360881,-0.00507306207417,0.0,0.0,0.0,0.0,-0.00507306207417,0.0420908783881,0.0,0.0,0.0,0.0,0.0,0.0,0.0,0.0,0.0,0.0,0.0,0.0,0.0,0.0,0.0,0.0,0.0,0.0,0.0,0.0,0.0,0.0,0.0,0.0,0.0,0.0,0.0,0.0407068850209
1616791006656674310,368,1616791006600410461,map,-1.31120330699,-0.526391527118,0.0,0.0,0.0,0.45304238738,0.891488976509,0.0311989408393,0.00165957941082,0.0,0.0,0.0,0.0,0.00165957941082,0.0494269164703,0.0,0.0,0.0,0.0,0.0,0.0,0.0,0.0,0.0,0.0,0.0,0.0,0.0,0.0,0.0,0.0,0.0,0.0,0.0,0.0,0.0,0.0,0.0,0.0,0.0,0.0,0.0,0.0517650163404
1616791007056812054,369,1616791006999708652,map,-1.280498903,-0.518738615651,0.0,0.0,0.0,0.20110498988,0.979569692797,0.0285842622275,0.00774587794811,0.0,0.0,0.0,0.0,0.00774587794811,0.0450045393536,0.0,0.0,0.0,0.0,0.0,0.0,0.0,0.0,0.0,0.0,0.0,0.0,0.0,0.0,0.0,0.0,0.0,0.0,0.0,0.0,0.0,0.0,0.0,0.0,0.0,0.0,0.0,0.0444338341138
1616791007455408066,370,1616791007399560452,map,-1.2653035101,-0.518999436393,0.0,0.0,0.0,-0.0837800317663,0.99648427297,0.0373293154222,0.0078421778387,0.0,0.0,0.0,0.0,0.0078421778387,0.0393133837322,0.0,0.0,0.0,0.0,0.0,0.0,0.0,0.0,0.0,0.0,0.0,0.0,0.0,0.0,0.0,0.0,0.0,0.0,0.0,0.0,0.0,0.0,0.0,0.0,0.0,0.0,0.0,0.0497402009239
1616791007854217744,371,1616791007799171448,map,-1.17919272376,-0.53481182059,0.0,0.0,0.0,-0.352796008266,0.935700259993,0.0339673635814,0.00191741015718,0.0,0.0,0.0,0.0,0.00191741015718,0.0329825877217,0.0,0.0,0.0,0.0,0.0,0.0,0.0,0.0,0.0,0.0,0.0,0.0,0.0,0.0,0.0,0.0,0.0,0.0,0.0,0.0,0.0,0.0,0.0,0.0,0.0,0.0,0.0,0.0391809671552
1616791008322323581,372,1616791008265816689,map,-1.03916142975,-0.724619075982,0.0,0.0,0.0,-0.536839974757,0.843684088686,0.0295809408112,-0.00246999565553,0.0,0.0,0.0,0.0,-0.00246999565553,0.0387032813306,0.0,0.0,0.0,0.0,0.0,0.0,0.0,0.0,0.0,0.0,0.0,0.0,0.0,0.0,0.0,0.0,0.0,0.0,0.0,0.0,0.0,0.0,0.0,0.0,0.0,0.0,0.0,0.0458466305138
1616791008598146790,373,1616791008532454491,map,-0.963638015895,-0.921042583973,0.0,0.0,0.0,-0.618619135494,0.785691011277,0.0278368812377,-0.00411916674943,0.0,0.0,0.0,0.0,-0.00411916674943,0.0443614494646,0.0,0.0,0.0,0.0,0.0,0.0,0.0,0.0,0.0,0.0,0.0,0.0,0.0,0.0,0.0,0.0,0.0,0.0,0.0,0.0,0.0,0.0,0.0,0.0,0.0,0.0,0.0,0.047755479322
1616791008854611396,374,1616791008798651218,map,-0.943215749961,-1.14546907498,0.0,0.0,0.0,-0.676996670985,0.735986078316,0.023296514837,-0.0022983060125,0.0,0.0,0.0,0.0,-0.0022983060125,0.0492547242566,0.0,0.0,0.0,0.0,0.0,0.0,0.0,0.0,0.0,0.0,0.0,0.0,0.0,0.0,0.0,0.0,0.0,0.0,0.0,0.0,0.0,0.0,0.0,0.0,0.0,0.0,0.0,0.0493302548256
1616791009123987412,375,1616791009066138506,map,-0.95674892946,-1.37987281982,0.0,0.0,0.0,-0.714829492344,0.699298789414,0.0180994229155,-2.54229778784e-07,0.0,0.0,0.0,0.0,-2.54229778784e-07,0.0547826176234,0.0,0.0,0.0,0.0,0.0,0.0,0.0,0.0,0.0,0.0,0.0,0.0,0.0,0.0,0.0,0.0,0.0,0.0,0.0,0.0,0.0,0.0,0.0,0.0,0.0,0.0,0.0,0.0451544377126
1616791009388639315,376,1616791009332409859,map,-0.979405943983,-1.61737323263,0.0,0.0,0.0,-0.71241981856,0.701753519495,0.0143987560519,0.00309731143211,0.0,0.0,0.0,0.0,0.00309731143211,0.0587247059273,0.0,0.0,0.0,0.0,0.0,0.0,0.0,0.0,0.0,0.0,0.0,0.0,0.0,0.0,0.0,0.0,0.0,0.0,0.0,0.0,0.0,0.0,0.0,0.0,0.0,0.0,0.0,0.0457280118886
1616791009654864783,377,1616791009599140882,map,-0.981806089131,-1.85348078363,0.0,0.0,0.0,-0.717851282363,0.696196478309,0.0138906804966,0.00430167030963,0.0,0.0,0.0,0.0,0.00430167030963,0.05840312969,0.0,0.0,0.0,0.0,0.0,0.0,0.0,0.0,0.0,0.0,0.0,0.0,0.0,0.0,0.0,0.0,0.0,0.0,0.0,0.0,0.0,0.0,0.0,0.0,0.0,0.0,0.0,0.0497756778227
1616791009924434039,378,1616791009866503477,map,-0.970833393196,-2.10444472077,0.0,0.0,0.0,-0.70547985308,0.708729974601,0.0141795322482,0.0033069676658,0.0,0.0,0.0,0.0,0.0033069676658,0.0634371698258,0.0,0.0,0.0,0.0,0.0,0.0,0.0,0.0,0.0,0.0,0.0,0.0,0.0,0.0,0.0,0.0,0.0,0.0,0.0,0.0,0.0,0.0,0.0,0.0,0.0,0.0,0.0,0.0512347218396
1616791010254848812,379,1616791010198997974,map,-0.965647267703,-2.36851075526,0.0,0.0,0.0,-0.69573222658,0.718301238268,0.0155295582957,0.00435895677546,0.0,0.0,0.0,0.0,0.00435895677546,0.0627979346903,0.0,0.0,0.0,0.0,0.0,0.0,0.0,0.0,0.0,0.0,0.0,0.0,0.0,0.0,0.0,0.0,0.0,0.0,0.0,0.0,0.0,0.0,0.0,0.0,0.0,0.0,0.0,0.0490632340312
1616791010721761297,380,1616791010665832520,map,-0.959898810883,-2.60775899998,0.0,0.0,0.0,-0.680612230008,0.73264383732,0.0173133573323,0.00550184522974,0.0,0.0,0.0,0.0,0.00550184522974,0.0611582239032,0.0,0.0,0.0,0.0,0.0,0.0,0.0,0.0,0.0,0.0,0.0,0.0,0.0,0.0,0.0,0.0,0.0,0.0,0.0,0.0,0.0,0.0,0.0,0.0,0.0,0.0,0.0,0.0432465714661
1616791012388962343,381,1616791012333051443,map,-0.95320495794,-2.8051265408,0.0,0.0,0.0,-0.766913227982,0.641750808918,0.0169387830513,0.00563374447548,0.0,0.0,0.0,0.0,0.00563374447548,0.0555549091132,0.0,0.0,0.0,0.0,0.0,0.0,0.0,0.0,0.0,0.0,0.0,0.0,0.0,0.0,0.0,0.0,0.0,0.0,0.0,0.0,0.0,0.0,0.0,0.0,0.0,0.0,0.0,0.0401315604298
1616791013524623588,382,1616791013465786457,map,-1.0483347111,-3.04556509627,0.0,0.0,0.0,-0.811034051393,0.584998946563,0.0186431202567,0.00838926051049,0.0,0.0,0.0,0.0,0.00838926051049,0.0460703896749,0.0,0.0,0.0,0.0,0.0,0.0,0.0,0.0,0.0,0.0,0.0,0.0,0.0,0.0,0.0,0.0,0.0,0.0,0.0,0.0,0.0,0.0,0.0,0.0,0.0,0.0,0.0,0.0366799155266
1616791015323770100,383,1616791015266032934,map,-1.04667339866,-3.06032783111,0.0,0.0,0.0,-0.627252455524,0.778815996907,0.0165341179375,0.00898138724667,0.0,0.0,0.0,0.0,0.00898138724667,0.0470128598744,0.0,0.0,0.0,0.0,0.0,0.0,0.0,0.0,0.0,0.0,0.0,0.0,0.0,0.0,0.0,0.0,0.0,0.0,0.0,0.0,0.0,0.0,0.0,0.0,0.0,0.0,0.0,0.0351550125923
1616791016529093161,384,1616791016466297388,map,-0.995145929397,-3.16804308149,0.0,0.0,0.0,-0.513472776569,0.858105883748,0.0158051757391,0.00218321716407,0.0,0.0,0.0,0.0,0.00218321716407,0.0406373639273,0.0,0.0,0.0,0.0,0.0,0.0,0.0,0.0,0.0,0.0,0.0,0.0,0.0,0.0,0.0,0.0,0.0,0.0,0.0,0.0,0.0,0.0,0.0,0.0,0.0,0.0,0.0,0.0313324854364
1616791016991526218,385,1616791016935653687,map,-0.870653646423,-3.3972300775,0.0,0.0,0.0,-0.526299460362,0.850299287324,0.0173102759366,-0.0020059051218,0.0,0.0,0.0,0.0,-0.0020059051218,0.0398213042984,0.0,0.0,0.0,0.0,0.0,0.0,0.0,0.0,0.0,0.0,0.0,0.0,0.0,0.0,0.0,0.0,0.0,0.0,0.0,0.0,0.0,0.0,0.0,0.0,0.0,0.0,0.0,0.0398743072917
1616791017257679883,386,1616791017200557709,map,-0.776798932029,-3.61147217816,0.0,0.0,0.0,-0.589367245451,0.807865242469,0.0185249874567,-0.00502360427301,0.0,0.0,0.0,0.0,-0.00502360427301,0.0458542701832,0.0,0.0,0.0,0.0,0.0,0.0,0.0,0.0,0.0,0.0,0.0,0.0,0.0,0.0,0.0,0.0,0.0,0.0,0.0,0.0,0.0,0.0,0.0,0.0,0.0,0.0,0.0,0.0390216918347
1616791017522496497,387,1616791017465622425,map,-0.737356645549,-3.84488977568,0.0,0.0,0.0,-0.659912411664,0.751342537683,0.0134811866996,-0.00353303628757,0.0,0.0,0.0,0.0,-0.00353303628757,0.0458761483699,0.0,0.0,0.0,0.0,0.0,0.0,0.0,0.0,0.0,0.0,0.0,0.0,0.0,0.0,0.0,0.0,0.0,0.0,0.0,0.0,0.0,0.0,0.0,0.0,0.0,0.0,0.0,0.0390357553203
1616791017789180068,388,1616791017733177900,map,-0.720487298107,-4.10167514483,0.0,0.0,0.0,-0.707762651869,0.706450301592,0.0134705027523,-0.00134591024547,0.0,0.0,0.0,0.0,-0.00134591024547,0.0484473718894,0.0,0.0,0.0,0.0,0.0,0.0,0.0,0.0,0.0,0.0,0.0,0.0,0.0,0.0,0.0,0.0,0.0,0.0,0.0,0.0,0.0,0.0,0.0,0.0,0.0,0.0,0.0,0.0435423978045
1616791018056590903,389,1616791017999406338,map,-0.738116608593,-4.36768788597,0.0,0.0,0.0,-0.744533475974,0.66758512802,0.013533877268,0.00405784453349,0.0,0.0,0.0,0.0,0.00405784453349,0.0463626195622,0.0,0.0,0.0,0.0,0.0,0.0,0.0,0.0,0.0,0.0,0.0,0.0,0.0,0.0,0.0,0.0,0.0,0.0,0.0,0.0,0.0,0.0,0.0,0.0,0.0,0.0,0.0,0.043155376277
1616791018329403395,390,1616791018266127110,map,-0.767933801264,-4.62580212941,0.0,0.0,0.0,-0.767319267572,0.641265266183,0.0149158202826,0.00670373675783,0.0,0.0,0.0,0.0,0.00670373675783,0.0423389988722,0.0,0.0,0.0,0.0,0.0,0.0,0.0,0.0,0.0,0.0,0.0,0.0,0.0,0.0,0.0,0.0,0.0,0.0,0.0,0.0,0.0,0.0,0.0,0.0,0.0,0.0,0.0,0.0447762688689
1616791018589396403,391,1616791018532848358,map,-0.822299043424,-4.89578974039,0.0,0.0,0.0,-0.793541567646,0.60851604779,0.0160980960919,0.00866825730905,0.0,0.0,0.0,0.0,0.00866825730905,0.0370682853765,0.0,0.0,0.0,0.0,0.0,0.0,0.0,0.0,0.0,0.0,0.0,0.0,0.0,0.0,0.0,0.0,0.0,0.0,0.0,0.0,0.0,0.0,0.0,0.0,0.0,0.0,0.0,0.0444094908976
1616791018923958306,392,1616791018866425276,map,-0.907574296694,-5.19212274277,0.0,0.0,0.0,-0.812363516887,0.583151366654,0.0210481359036,0.0130577706326,0.0,0.0,0.0,0.0,0.0130577706326,0.0375530410608,0.0,0.0,0.0,0.0,0.0,0.0,0.0,0.0,0.0,0.0,0.0,0.0,0.0,0.0,0.0,0.0,0.0,0.0,0.0,0.0,0.0,0.0,0.0,0.0,0.0,0.0,0.0,0.0490379625263
1616791019390364216,393,1616791019332849741,map,-0.997842871,-5.42928187611,0.0,0.0,0.0,-0.837051805191,0.547123638154,0.0239243318689,0.0137251059106,0.0,0.0,0.0,0.0,0.0137251059106,0.0319670328343,0.0,0.0,0.0,0.0,0.0,0.0,0.0,0.0,0.0,0.0,0.0,0.0,0.0,0.0,0.0,0.0,0.0,0.0,0.0,0.0,0.0,0.0,0.0,0.0,0.0,0.0,0.0,0.0513602713224
1616791020456073747,394,1616791020400447130,map,-1.11402917539,-5.67537866702,0.0,0.0,0.0,-0.849218899975,0.528040964249,0.0298150977064,0.0168756982725,0.0,0.0,0.0,0.0,0.0168756982725,0.0316157800044,0.0,0.0,0.0,0.0,0.0,0.0,0.0,0.0,0.0,0.0,0.0,0.0,0.0,0.0,0.0,0.0,0.0,0.0,0.0,0.0,0.0,0.0,0.0,0.0,0.0,0.0,0.0,0.0569747169725
1616791022523053865,395,1616791022466172457,map,-1.14554522175,-5.74085092251,0.0,0.0,0.0,-0.960872504913,0.276991027475,0.030724073104,0.0166096763533,0.0,0.0,0.0,0.0,0.0166096763533,0.0256650490952,0.0,0.0,0.0,0.0,0.0,0.0,0.0,0.0,0.0,0.0,0.0,0.0,0.0,0.0,0.0,0.0,0.0,0.0,0.0,0.0,0.0,0.0,0.0,0.0,0.0,0.0,0.0,0.0533081286067
